CONUSAccess(1).txt

                                                                              23 Dec 2020 13:44:59
Approved AGI Educational Alliance Partner
Satellite-Satellite2-To-AreaTarget-United_States_of_America:  Access Summary Report


Satellite2-To-United_States_of_America
--------------------------------------
                  Access        Start Time (UTCG)           Stop Time (UTCG)        Duration (sec)
                  ------    ------------------------    ------------------------    --------------
                       1    24 Dec 2020 00:06:10.782    24 Dec 2020 00:10:30.805           260.024
                       2    24 Dec 2020 01:37:14.023    24 Dec 2020 01:48:37.846           683.823
                       3    24 Dec 2020 03:10:44.785    24 Dec 2020 03:25:23.340           878.556
                       4    24 Dec 2020 04:43:38.767    24 Dec 2020 05:00:46.576          1027.810
                       5    24 Dec 2020 06:18:02.752    24 Dec 2020 06:36:03.631          1080.879
                       6    24 Dec 2020 07:53:14.305    24 Dec 2020 08:11:40.977          1106.672
                       7    24 Dec 2020 09:28:51.512    24 Dec 2020 09:45:53.625          1022.113
                       8    24 Dec 2020 11:05:41.020    24 Dec 2020 11:16:21.958           640.938
                       9    25 Dec 2020 00:14:30.905    25 Dec 2020 00:20:04.508           333.603
                      10    25 Dec 2020 01:45:49.522    25 Dec 2020 01:57:52.698           723.176
                      11    25 Dec 2020 03:19:17.160    25 Dec 2020 03:34:25.129           907.969
                      12    25 Dec 2020 04:52:27.852    25 Dec 2020 05:09:44.612          1036.760
                      13    25 Dec 2020 06:26:58.018    25 Dec 2020 06:45:06.132          1088.114
                      14    25 Dec 2020 08:02:12.683    25 Dec 2020 08:20:36.913          1104.230
                      15    25 Dec 2020 09:37:55.953    25 Dec 2020 09:54:27.009           991.056
                      16    25 Dec 2020 11:15:03.286    25 Dec 2020 11:24:13.957           550.671
                      17    26 Dec 2020 00:23:02.013    26 Dec 2020 00:29:29.922           387.909
                      18    26 Dec 2020 01:54:28.339    26 Dec 2020 02:07:04.080           755.741
                      19    26 Dec 2020 03:27:55.295    26 Dec 2020 03:43:25.434           930.139
                      20    26 Dec 2020 05:01:14.116    26 Dec 2020 05:18:42.064          1047.948
                      21    26 Dec 2020 06:35:54.139    26 Dec 2020 06:54:08.093          1093.954
                      22    26 Dec 2020 08:11:11.213    26 Dec 2020 08:29:31.182          1099.969
                      23    26 Dec 2020 09:47:01.745    26 Dec 2020 10:02:52.826           951.080
                      24    26 Dec 2020 11:24:36.393    26 Dec 2020 11:29:28.799           292.406
                      25    27 Dec 2020 00:31:39.576    27 Dec 2020 00:38:49.371           429.795
                      26    27 Dec 2020 02:03:10.164    27 Dec 2020 02:16:12.942           782.778
                      27    27 Dec 2020 03:36:26.342    27 Dec 2020 03:52:24.395           958.053
                      28    27 Dec 2020 05:10:01.991    27 Dec 2020 05:27:38.869          1056.879
                      29    27 Dec 2020 06:44:50.999    27 Dec 2020 07:03:09.381          1098.382
                      30    27 Dec 2020 08:20:10.356    27 Dec 2020 08:38:23.563          1093.207
                      31    27 Dec 2020 09:56:09.173    27 Dec 2020 10:11:04.087           894.914
                      32    27 Dec 2020 11:34:52.470    27 Dec 2020 11:37:14.007           141.537
                      33    28 Dec 2020 00:40:21.712    28 Dec 2020 00:48:04.515           462.803
                      34    28 Dec 2020 02:11:54.960    28 Dec 2020 02:25:26.096           811.136
                      35    28 Dec 2020 03:45:00.194    28 Dec 2020 04:01:22.121           981.927
                      36    28 Dec 2020 05:18:51.716    28 Dec 2020 05:36:34.950          1063.234
                      37    28 Dec 2020 06:53:47.414    28 Dec 2020 07:12:09.856          1102.442
                      38    28 Dec 2020 08:29:10.024    28 Dec 2020 08:47:13.771          1083.747
                      39    28 Dec 2020 10:05:17.633    28 Dec 2020 10:18:24.211           786.578
                      40    29 Dec 2020 00:48:23.066    29 Dec 2020 00:57:16.508           533.442
                      41    29 Dec 2020 02:20:42.700    29 Dec 2020 02:34:35.798           833.098
                      42    29 Dec 2020 03:53:39.329    29 Dec 2020 04:10:18.636           999.307
                      43    29 Dec 2020 05:27:42.927    29 Dec 2020 05:45:30.211          1067.284
                      44    29 Dec 2020 07:02:44.121    29 Dec 2020 07:21:09.598          1105.476
                      45    29 Dec 2020 08:38:10.570    29 Dec 2020 08:56:01.440          1070.870
                      46    29 Dec 2020 10:14:28.138    29 Dec 2020 10:27:03.862           755.724
                      47    30 Dec 2020 00:56:26.019    30 Dec 2020 01:06:32.462           606.443
                      48    30 Dec 2020 02:29:32.872    30 Dec 2020 02:43:42.414           849.542
                      49    30 Dec 2020 04:02:22.264    30 Dec 2020 04:19:13.949          1011.686
                      50    30 Dec 2020 05:36:35.554    30 Dec 2020 05:54:25.161          1069.606
                      51    30 Dec 2020 07:11:41.492    30 Dec 2020 07:30:08.751          1107.259
                      52    30 Dec 2020 08:47:12.080    30 Dec 2020 09:04:46.062          1053.982
                      53    30 Dec 2020 10:23:41.830    30 Dec 2020 10:35:38.024           716.195
                      54    30 Dec 2020 23:33:55.290    30 Dec 2020 23:37:37.493           222.203
                      55    31 Dec 2020 01:04:49.922    31 Dec 2020 01:15:55.270           665.348
                      56    31 Dec 2020 02:38:17.618    31 Dec 2020 02:52:46.705           869.087
                      57    31 Dec 2020 04:11:08.147    31 Dec 2020 04:28:11.719          1023.571
                      58    31 Dec 2020 05:45:29.393    31 Dec 2020 06:03:27.055          1077.663
                      59    31 Dec 2020 07:20:39.465    31 Dec 2020 07:39:06.681          1107.216
                      60    31 Dec 2020 08:56:14.680    31 Dec 2020 09:13:26.895          1032.215
                      61    31 Dec 2020 10:32:58.549    31 Dec 2020 10:44:03.700           665.150
                      62    31 Dec 2020 23:42:09.314    31 Dec 2020 23:47:17.314           308.000
                      63     1 Jan 2021 01:13:22.959     1 Jan 2021 01:25:11.883           708.923
                      64     1 Jan 2021 02:46:51.679     1 Jan 2021 03:01:49.143           897.464
                      65     1 Jan 2021 04:19:56.413     1 Jan 2021 04:37:09.971          1033.557
                      66     1 Jan 2021 05:54:24.284     1 Jan 2021 06:12:29.731          1085.446
                      67     1 Jan 2021 07:29:37.974     1 Jan 2021 07:48:03.215          1105.242
                      68     1 Jan 2021 09:05:18.554     1 Jan 2021 09:22:02.794          1004.240
                      69     1 Jan 2021 10:42:18.178     1 Jan 2021 10:52:11.726           593.547
                      70     1 Jan 2021 23:50:36.930     1 Jan 2021 23:56:45.247           368.317
                      71     2 Jan 2021 01:22:00.597     2 Jan 2021 01:34:24.481           743.884
                      72     2 Jan 2021 02:55:27.847     2 Jan 2021 03:10:50.005           922.158
                      73     2 Jan 2021 04:28:44.003     2 Jan 2021 04:46:07.658          1043.655
                      74     2 Jan 2021 06:03:20.086     2 Jan 2021 06:21:31.919          1091.833
                      75     2 Jan 2021 07:38:36.231     2 Jan 2021 07:56:58.163          1101.932
                      76     2 Jan 2021 09:14:23.876     2 Jan 2021 09:30:31.686           967.810
                      77     2 Jan 2021 10:51:46.021     2 Jan 2021 10:57:26.702           340.681
                      78     2 Jan 2021 23:59:12.267     3 Jan 2021 00:06:06.871           414.603
                      79     3 Jan 2021 01:30:41.592     3 Jan 2021 01:43:34.247           772.655
                      80     3 Jan 2021 03:04:03.114     3 Jan 2021 03:19:49.475           946.362
                      81     3 Jan 2021 04:37:31.014     3 Jan 2021 04:55:04.730          1053.715
                      82     3 Jan 2021 06:12:16.670     3 Jan 2021 06:30:33.487          1096.817
                      83     3 Jan 2021 07:47:35.180     3 Jan 2021 08:05:51.312          1096.132
                      84     3 Jan 2021 09:23:30.538     3 Jan 2021 09:38:50.660           920.122
                      85     3 Jan 2021 11:01:34.001     3 Jan 2021 11:05:06.505           212.503
                      86     4 Jan 2021 00:07:52.768     4 Jan 2021 00:15:23.530           450.762
                      87     4 Jan 2021 01:39:25.056     4 Jan 2021 01:52:45.702           800.646
                      88     4 Jan 2021 03:12:34.216     4 Jan 2021 03:28:47.682           973.466
                      89     4 Jan 2021 04:46:20.104     4 Jan 2021 05:04:01.103          1060.999
                      90     4 Jan 2021 06:21:13.422     4 Jan 2021 06:39:34.298          1100.876
                      91     4 Jan 2021 07:56:34.573     4 Jan 2021 08:14:42.411          1087.838
                      92     4 Jan 2021 09:32:38.716     4 Jan 2021 09:46:33.687           834.970
                      93     5 Jan 2021 00:16:32.987     5 Jan 2021 00:24:36.650           483.663
                      94     5 Jan 2021 01:48:11.711     5 Jan 2021 02:01:56.946           825.235
                      95     5 Jan 2021 03:21:11.513     5 Jan 2021 03:37:44.666           993.153
                      96     5 Jan 2021 04:55:10.711     5 Jan 2021 05:12:56.693          1065.982
                      97     5 Jan 2021 06:30:09.852     5 Jan 2021 06:48:34.242          1104.390
                      98     5 Jan 2021 08:05:34.770     5 Jan 2021 08:23:31.126          1076.357
                      99     5 Jan 2021 09:41:48.222     5 Jan 2021 09:54:36.913           768.691
                     100     6 Jan 2021 00:24:08.967     6 Jan 2021 00:33:47.538           578.571
                     101     6 Jan 2021 01:57:00.980     6 Jan 2021 02:11:04.654           843.674
                     102     6 Jan 2021 03:29:53.085     6 Jan 2021 03:46:40.455          1007.370
                     103     6 Jan 2021 05:04:02.810     6 Jan 2021 05:21:51.630          1068.819
                     104     6 Jan 2021 06:39:06.969     6 Jan 2021 06:57:33.741          1106.772
                     105     6 Jan 2021 08:14:35.887     6 Jan 2021 08:32:17.014          1061.127
                     106     6 Jan 2021 09:51:00.530     6 Jan 2021 10:03:13.461           732.931
                     107     6 Jan 2021 23:01:44.153     6 Jan 2021 23:04:39.188           175.035
                     108     7 Jan 2021 00:32:27.178     7 Jan 2021 00:43:11.756           644.578
                     109     7 Jan 2021 02:05:48.329     7 Jan 2021 02:20:09.793           861.464
                     110     7 Jan 2021 03:38:37.891     7 Jan 2021 03:55:36.785          1018.893
                     111     7 Jan 2021 05:12:56.195     7 Jan 2021 05:30:50.479          1074.285
                     112     7 Jan 2021 06:48:04.710     7 Jan 2021 07:06:32.172          1107.461
                     113     7 Jan 2021 08:23:38.043     7 Jan 2021 08:40:59.443          1041.400
                     114     7 Jan 2021 10:00:16.812     7 Jan 2021 10:11:43.010           686.198
                     115     7 Jan 2021 23:09:49.822     7 Jan 2021 23:14:28.304           278.482
                     116     8 Jan 2021 00:40:57.258     8 Jan 2021 00:52:30.463           693.204
                     117     8 Jan 2021 02:14:27.230     8 Jan 2021 02:29:12.914           885.684
                     118     8 Jan 2021 03:47:25.277     8 Jan 2021 04:04:35.248          1029.970
                     119     8 Jan 2021 05:21:50.696     8 Jan 2021 05:39:53.255          1082.560
                     120     8 Jan 2021 06:57:03.036     8 Jan 2021 07:15:29.274          1106.238
                     121     8 Jan 2021 08:32:41.391     8 Jan 2021 08:49:37.476          1016.085
                     122     8 Jan 2021 10:09:34.283     8 Jan 2021 10:20:00.078           625.795
                     123     8 Jan 2021 23:18:12.998     8 Jan 2021 23:23:59.522           346.525
                     124     9 Jan 2021 00:49:33.575     9 Jan 2021 01:01:44.459           730.883
                     125     9 Jan 2021 02:23:01.073     9 Jan 2021 02:38:14.364           913.292
                     126     9 Jan 2021 03:56:14.276     9 Jan 2021 04:13:33.158          1038.881
                     127     9 Jan 2021 05:30:46.153     9 Jan 2021 05:48:55.651          1089.499
                     128     9 Jan 2021 07:06:01.351     9 Jan 2021 07:24:24.867          1103.516
                     129     9 Jan 2021 08:41:46.161     9 Jan 2021 08:58:09.286           983.126
                     130     9 Jan 2021 10:18:58.276     9 Jan 2021 10:25:40.844           402.568
                     131     9 Jan 2021 23:26:45.740     9 Jan 2021 23:33:23.624           397.884
                     132    10 Jan 2021 00:58:13.396    10 Jan 2021 01:10:55.228           761.832
                     133    10 Jan 2021 02:31:39.901    10 Jan 2021 02:47:14.363           934.462
                     134    10 Jan 2021 04:05:00.356    10 Jan 2021 04:22:30.475          1050.119
                     135    10 Jan 2021 05:39:42.445    10 Jan 2021 05:57:57.478          1095.033
                     136    10 Jan 2021 07:15:00.029    10 Jan 2021 07:33:18.750          1098.720
                     137    10 Jan 2021 08:50:52.230    10 Jan 2021 09:06:33.153           940.923
                     138    10 Jan 2021 10:28:35.306    10 Jan 2021 10:32:51.913           256.607
                     139    10 Jan 2021 23:35:24.418    10 Jan 2021 23:42:42.007           437.589
                     140    11 Jan 2021 01:06:55.640    11 Jan 2021 01:20:04.491           788.851
                     141    11 Jan 2021 02:40:09.170    11 Jan 2021 02:56:13.056           963.886
                     142    11 Jan 2021 04:13:48.677    11 Jan 2021 04:31:27.131          1058.454
                     143    11 Jan 2021 05:48:39.450    11 Jan 2021 06:06:58.602          1099.153
                     144    11 Jan 2021 07:23:59.255    11 Jan 2021 07:42:10.686          1091.431
                     145    11 Jan 2021 09:00:00.111    11 Jan 2021 09:14:38.093           877.982
                     146    11 Jan 2021 10:39:17.651    11 Jan 2021 10:40:40.003            82.352
                     147    11 Jan 2021 23:44:07.390    11 Jan 2021 23:51:56.385           468.995
                     148    12 Jan 2021 01:15:41.121    12 Jan 2021 01:29:17.557           816.436
                     149    12 Jan 2021 02:48:44.346    12 Jan 2021 03:05:10.513           986.167
                     150    12 Jan 2021 04:22:38.730    12 Jan 2021 04:40:23.047          1064.317
                     151    12 Jan 2021 05:57:35.684    12 Jan 2021 06:15:58.882          1103.199
                     152    12 Jan 2021 07:32:59.110    12 Jan 2021 07:51:00.380          1081.270
                     153    12 Jan 2021 09:09:08.726    12 Jan 2021 09:22:09.236           780.511
                     154    12 Jan 2021 23:51:56.308    13 Jan 2021 00:01:07.882           551.574
                     155    13 Jan 2021 01:24:29.426    13 Jan 2021 01:38:26.503           837.077
                     156    13 Jan 2021 02:57:24.398    13 Jan 2021 03:14:06.773          1002.375
                     157    13 Jan 2021 04:31:30.264    13 Jan 2021 04:49:18.108          1067.844
                     158    13 Jan 2021 06:06:32.539    13 Jan 2021 06:24:58.552          1106.013
                     159    13 Jan 2021 07:41:59.855    13 Jan 2021 07:59:47.436          1067.581
                     160    13 Jan 2021 09:18:19.832    13 Jan 2021 09:30:47.852           748.020
                     161    13 Jan 2021 22:29:44.546    13 Jan 2021 22:31:29.497           104.951
                     162    14 Jan 2021 00:00:06.159    14 Jan 2021 00:10:27.078           620.918
                     163    14 Jan 2021 01:33:19.054    14 Jan 2021 01:47:32.566           853.512
                     164    14 Jan 2021 03:06:08.028    14 Jan 2021 03:23:01.824          1013.796
                     165    14 Jan 2021 04:40:23.166    14 Jan 2021 04:58:14.064          1070.898
                     166    14 Jan 2021 06:15:30.046    14 Jan 2021 06:33:57.459          1107.413
                     167    14 Jan 2021 07:51:01.588    14 Jan 2021 08:08:31.316          1049.727
                     168    14 Jan 2021 09:27:34.377    14 Jan 2021 09:39:20.528           706.151
                     169    14 Jan 2021 22:37:32.868    14 Jan 2021 22:41:36.833           243.965
                     170    15 Jan 2021 00:08:32.544    15 Jan 2021 00:19:48.335           675.791
                     171    15 Jan 2021 01:42:03.440    15 Jan 2021 01:56:36.426           872.986
                     172    15 Jan 2021 03:14:54.466    15 Jan 2021 03:32:00.436          1025.970
                     173    15 Jan 2021 04:49:17.249    15 Jan 2021 05:07:16.717          1079.468
                     174    15 Jan 2021 06:24:28.149    15 Jan 2021 06:42:55.102          1106.953
                     175    15 Jan 2021 08:00:04.447    15 Jan 2021 08:17:11.218          1026.771
                     176    15 Jan 2021 09:36:51.350    15 Jan 2021 09:47:43.606           652.256
                     177    15 Jan 2021 22:45:50.482    15 Jan 2021 22:51:13.015           322.534
                     178    16 Jan 2021 00:17:07.000    16 Jan 2021 00:29:03.944           716.944
                     179    16 Jan 2021 01:50:35.091    16 Jan 2021 02:05:38.500           903.409
                     180    16 Jan 2021 03:23:43.193    16 Jan 2021 03:40:58.570          1035.376
                     181    16 Jan 2021 04:58:12.349    16 Jan 2021 05:16:19.298          1086.949
                     182    16 Jan 2021 06:33:26.584    16 Jan 2021 06:51:51.305          1104.721
                     183    16 Jan 2021 08:09:08.628    16 Jan 2021 08:25:45.781           997.153
                     184    16 Jan 2021 09:46:12.365    16 Jan 2021 09:55:44.150           571.784
                     185    16 Jan 2021 22:54:20.110    16 Jan 2021 23:00:39.499           379.389
                     186    17 Jan 2021 00:25:45.292    17 Jan 2021 00:38:15.853           750.562
                     187    17 Jan 2021 01:59:12.401    17 Jan 2021 02:14:39.046           926.645
                     188    17 Jan 2021 03:32:30.045    17 Jan 2021 03:49:56.129          1046.084
                     189    17 Jan 2021 05:07:08.332    17 Jan 2021 05:25:21.360          1093.028
                     190    17 Jan 2021 06:42:24.987    17 Jan 2021 07:00:45.887          1100.901
                     191    17 Jan 2021 08:18:14.208    17 Jan 2021 08:34:12.986           958.777
                     192    17 Jan 2021 09:55:42.874    17 Jan 2021 10:00:59.448           316.574
                     193    17 Jan 2021 23:02:56.716    17 Jan 2021 23:09:59.879           423.163
                     194    18 Jan 2021 00:34:26.758    18 Jan 2021 00:47:25.107           778.349
                     195    18 Jan 2021 02:07:45.229    18 Jan 2021 02:23:38.243           953.014
                     196    18 Jan 2021 03:41:17.536    18 Jan 2021 03:58:53.049          1055.513
                     197    18 Jan 2021 05:16:05.066    18 Jan 2021 05:34:22.776          1097.711
                     198    18 Jan 2021 06:51:24.065    18 Jan 2021 07:09:38.617          1094.553
                     199    18 Jan 2021 08:27:21.279    18 Jan 2021 08:42:28.198           906.919
                     200    18 Jan 2021 10:05:41.225    18 Jan 2021 10:08:41.430           180.205
                     201    18 Jan 2021 23:11:38.142    18 Jan 2021 23:19:15.675           457.533
                     202    19 Jan 2021 00:43:10.969    19 Jan 2021 00:56:37.553           806.584
                     203    19 Jan 2021 02:16:17.916    19 Jan 2021 02:32:36.179           978.263
                     204    19 Jan 2021 03:50:06.989    19 Jan 2021 04:07:49.264          1062.275
                     205    19 Jan 2021 05:25:01.634    19 Jan 2021 05:43:23.405          1101.771
                     206    19 Jan 2021 07:00:23.585    19 Jan 2021 07:18:29.233          1085.647
                     207    19 Jan 2021 08:36:29.616    19 Jan 2021 08:49:40.908           791.292
                     208    19 Jan 2021 23:19:52.624    19 Jan 2021 23:28:28.161           515.537
                     209    20 Jan 2021 00:51:58.228    20 Jan 2021 01:05:47.917           829.689
                     210    20 Jan 2021 02:24:56.256    20 Jan 2021 02:41:32.904           996.648
                     211    20 Jan 2021 03:58:57.930    20 Jan 2021 04:16:44.678          1066.748
                     212    20 Jan 2021 05:33:58.216    20 Jan 2021 05:52:23.238          1105.022
                     213    20 Jan 2021 07:09:23.972    20 Jan 2021 07:27:17.380          1073.408
                     214    20 Jan 2021 08:45:39.654    20 Jan 2021 08:58:21.347           761.693
                     215    20 Jan 2021 23:27:47.438    20 Jan 2021 23:37:41.667           594.230
                     216    21 Jan 2021 01:00:48.004    21 Jan 2021 01:14:55.007           847.003
                     217    21 Jan 2021 02:33:38.594    21 Jan 2021 02:50:28.432          1009.837
                     218    21 Jan 2021 04:07:50.322    21 Jan 2021 04:25:39.619          1069.297
                     219    21 Jan 2021 05:42:55.474    21 Jan 2021 06:01:22.551          1107.077
                     220    21 Jan 2021 07:18:25.306    21 Jan 2021 07:36:02.581          1057.275
                     221    21 Jan 2021 08:54:52.703    21 Jan 2021 09:06:56.632           723.929
                     222    21 Jan 2021 22:05:18.958    21 Jan 2021 22:08:41.637           202.679
                     223    21 Jan 2021 23:36:09.013    21 Jan 2021 23:47:05.362           656.349
                     224    22 Jan 2021 01:09:33.900    22 Jan 2021 01:23:59.666           865.766
                     225    22 Jan 2021 02:42:24.010    22 Jan 2021 02:59:25.540          1021.530
                     226    22 Jan 2021 04:16:43.961    22 Jan 2021 04:34:40.111          1076.150
                     227    22 Jan 2021 05:51:53.345    22 Jan 2021 06:10:20.708          1107.363
                     228    22 Jan 2021 07:27:27.703    22 Jan 2021 07:44:44.149          1036.447
                     229    22 Jan 2021 09:04:09.221    22 Jan 2021 09:15:24.157           674.936
                     230    22 Jan 2021 22:13:29.757    22 Jan 2021 22:18:25.065           295.308
                     231    22 Jan 2021 23:44:40.794    22 Jan 2021 23:56:22.864           702.070
                     232    23 Jan 2021 01:18:10.054    23 Jan 2021 01:33:02.406           892.352
                     233    23 Jan 2021 02:51:11.888    23 Jan 2021 03:08:23.886          1031.998
                     234    23 Jan 2021 04:25:38.682    23 Jan 2021 04:43:42.859          1084.177
                     235    23 Jan 2021 06:00:51.791    23 Jan 2021 06:19:17.501          1105.710
                     236    23 Jan 2021 07:36:31.338    23 Jan 2021 07:53:21.045          1009.707
                     237    23 Jan 2021 09:13:27.831    23 Jan 2021 09:23:36.778           608.947
                     238    23 Jan 2021 22:21:55.519    23 Jan 2021 22:27:54.332           358.813
                     239    23 Jan 2021 23:53:17.864    24 Jan 2021 00:05:36.070           738.207
                     240    24 Jan 2021 01:26:45.227    24 Jan 2021 01:42:03.528           918.301
                     241    24 Jan 2021 03:00:00.100    24 Jan 2021 03:17:21.676          1041.576
                     242    24 Jan 2021 04:34:34.329    24 Jan 2021 04:52:45.143          1090.814
                     243    24 Jan 2021 06:09:50.050    24 Jan 2021 06:28:12.742          1102.692
                     244    24 Jan 2021 07:45:36.451    24 Jan 2021 08:01:51.300           974.849
                     245    24 Jan 2021 09:22:53.813    24 Jan 2021 09:28:51.408           357.595
                     246    24 Jan 2021 22:30:29.744    24 Jan 2021 22:37:17.053           407.310
                     247    25 Jan 2021 00:01:58.458    25 Jan 2021 00:14:46.269           767.811
                     248    25 Jan 2021 01:35:22.656    25 Jan 2021 01:51:03.236           940.580
                     249    25 Jan 2021 03:08:46.703    25 Jan 2021 03:26:18.857          1052.154
                     250    25 Jan 2021 04:43:30.785    25 Jan 2021 05:01:46.830          1096.045
                     251    25 Jan 2021 06:18:48.880    25 Jan 2021 06:37:06.226          1097.346
                     252    25 Jan 2021 07:54:42.798    25 Jan 2021 08:10:12.685           929.887
                     253    25 Jan 2021 09:32:36.013    25 Jan 2021 09:36:30.039           234.026
                     254    25 Jan 2021 22:39:09.453    25 Jan 2021 22:46:34.456           445.002
                     255    26 Jan 2021 00:10:41.276    26 Jan 2021 00:23:56.812           795.536
                     256    26 Jan 2021 01:43:52.342    26 Jan 2021 02:00:01.655           969.313
                     257    26 Jan 2021 03:17:35.455    26 Jan 2021 03:35:15.360          1059.905
                     258    26 Jan 2021 04:52:27.694    26 Jan 2021 05:10:47.784          1100.090
                     259    26 Jan 2021 06:27:48.193    26 Jan 2021 06:45:57.707          1089.513
                     260    26 Jan 2021 08:03:50.844    26 Jan 2021 08:18:08.405           857.561
                     261    26 Jan 2021 22:47:53.221    26 Jan 2021 22:55:48.123           474.903
                     262    27 Jan 2021 00:19:27.417    27 Jan 2021 00:33:08.831           821.415
                     263    27 Jan 2021 01:52:28.723    27 Jan 2021 02:08:58.854           990.131
                     264    27 Jan 2021 03:26:25.818    27 Jan 2021 03:44:11.102          1065.285
                     265    27 Jan 2021 05:01:23.990    27 Jan 2021 05:19:47.866          1103.876
                     266    27 Jan 2021 06:36:48.237    27 Jan 2021 06:54:46.868          1078.631
                     267    27 Jan 2021 08:12:59.937    27 Jan 2021 08:25:54.061           774.124
                     268    27 Jan 2021 22:55:32.077    27 Jan 2021 23:04:59.276           567.198
                     269    28 Jan 2021 00:28:16.271    28 Jan 2021 00:42:17.076           840.805
                     270    28 Jan 2021 02:01:09.634    28 Jan 2021 02:17:54.855          1005.221
                     271    28 Jan 2021 03:35:17.666    28 Jan 2021 03:53:06.021          1068.355
                     272    28 Jan 2021 05:10:20.991    28 Jan 2021 05:28:47.460          1106.468
                     273    28 Jan 2021 06:45:49.185    28 Jan 2021 07:03:33.292          1064.108
                     274    28 Jan 2021 08:22:11.684    28 Jan 2021 08:34:31.575           739.890
                     275    28 Jan 2021 21:33:11.529    28 Jan 2021 21:35:39.668           148.140
                     276    28 Jan 2021 23:03:46.989    28 Jan 2021 23:14:21.359           634.371
                     277    29 Jan 2021 00:37:04.631    29 Jan 2021 00:51:22.618           857.986
                     278    29 Jan 2021 02:09:53.924    29 Jan 2021 02:26:50.567          1016.643
                     279    29 Jan 2021 03:44:10.838    29 Jan 2021 04:02:03.636          1072.798
                     280    29 Jan 2021 05:19:18.630    29 Jan 2021 05:37:46.106          1107.476
                     281    29 Jan 2021 06:54:51.149    29 Jan 2021 07:12:16.392          1045.243
                     282    29 Jan 2021 08:31:27.150    29 Jan 2021 08:43:02.601           695.450
                     283    29 Jan 2021 21:41:11.446    29 Jan 2021 21:45:35.058           263.612
                     284    29 Jan 2021 23:12:15.530    29 Jan 2021 23:23:41.145           685.615
                     285    30 Jan 2021 00:45:46.131    30 Jan 2021 01:00:26.060           879.929
                     286    30 Jan 2021 02:18:40.897    30 Jan 2021 02:35:49.125          1028.228
                     287    30 Jan 2021 03:53:05.158    30 Jan 2021 04:11:06.357          1081.200
                     288    30 Jan 2021 05:28:16.857    30 Jan 2021 05:46:43.455          1106.598
                     289    30 Jan 2021 07:03:54.273    30 Jan 2021 07:20:55.289          1021.015
                     290    30 Jan 2021 08:40:44.395    30 Jan 2021 08:51:22.623           638.228
                     291    30 Jan 2021 21:49:32.183    30 Jan 2021 21:55:08.263           336.080
                     292    30 Jan 2021 23:20:51.183    30 Jan 2021 23:32:55.831           724.648
                     293    31 Jan 2021 00:54:18.794    31 Jan 2021 01:09:27.786           908.991
                     294    31 Jan 2021 02:27:30.060    31 Jan 2021 02:44:47.139          1037.078
                     295    31 Jan 2021 04:02:00.456    31 Jan 2021 04:20:08.834          1088.378
                     296    31 Jan 2021 05:37:15.220    31 Jan 2021 05:55:39.328          1104.108
                     297    31 Jan 2021 07:12:58.774    31 Jan 2021 07:29:28.392           989.618
                     298    31 Jan 2021 08:50:06.963    31 Jan 2021 08:59:12.748           545.785
                     299    31 Jan 2021 21:58:03.609    31 Jan 2021 22:04:33.427           389.818
                     300    31 Jan 2021 23:29:30.192    31 Jan 2021 23:42:07.099           756.907
                     301     1 Feb 2021 01:02:57.090     1 Feb 2021 01:18:28.034           930.944
                     302     1 Feb 2021 02:36:16.195     1 Feb 2021 02:53:44.562          1048.366
                     303     1 Feb 2021 04:10:56.607     1 Feb 2021 04:29:10.771          1094.164
                     304     1 Feb 2021 05:46:13.777     1 Feb 2021 06:04:33.527          1099.750
                     305     1 Feb 2021 07:22:04.614     1 Feb 2021 07:37:53.868           949.253
                     306     1 Feb 2021 08:59:40.730     1 Feb 2021 09:04:26.622           285.892
                     307     1 Feb 2021 22:06:41.388     1 Feb 2021 22:13:52.672           431.284
                     308     1 Feb 2021 23:38:12.098     1 Feb 2021 23:51:15.872           783.773
                     309     2 Feb 2021 01:11:27.761     2 Feb 2021 01:27:26.948           959.187
                     310     2 Feb 2021 02:45:04.152     2 Feb 2021 03:02:41.340          1057.187
                     311     2 Feb 2021 04:19:53.495     2 Feb 2021 04:38:12.029          1098.535
                     312     2 Feb 2021 05:55:12.936     2 Feb 2021 06:13:25.825          1092.890
                     313     2 Feb 2021 07:31:12.125     2 Feb 2021 07:46:04.098           891.973
                     314     2 Feb 2021 09:10:07.814     2 Feb 2021 09:12:13.005           125.190
                     315     2 Feb 2021 22:15:23.684     2 Feb 2021 22:23:07.668           463.984
                     316     2 Feb 2021 23:46:57.024     3 Feb 2021 00:00:29.182           812.158
                     317     3 Feb 2021 01:20:01.874     3 Feb 2021 01:36:24.621           982.747
                     318     3 Feb 2021 02:53:53.941     3 Feb 2021 03:11:37.389          1063.448
                     319     3 Feb 2021 04:28:49.877     3 Feb 2021 04:47:12.468          1102.591
                     320     3 Feb 2021 06:04:12.637     3 Feb 2021 06:22:15.940          1083.302
                     321     3 Feb 2021 07:40:20.615     3 Feb 2021 07:53:26.088           785.473
                     322     3 Feb 2021 22:23:22.476     3 Feb 2021 22:32:19.552           537.076
                     323     3 Feb 2021 23:55:44.867     4 Feb 2021 00:09:38.737           833.870
                     324     4 Feb 2021 01:28:41.185     4 Feb 2021 01:45:21.088           999.903
                     325     4 Feb 2021 03:02:45.214     4 Feb 2021 03:20:32.616          1067.402
                     326     4 Feb 2021 04:37:46.614     4 Feb 2021 04:56:12.194          1105.580
                     327     4 Feb 2021 06:13:13.220     4 Feb 2021 06:31:03.497          1070.277
                     328     4 Feb 2021 07:49:31.228     4 Feb 2021 08:02:05.553           754.325
                     329     4 Feb 2021 21:01:28.760     4 Feb 2021 21:02:13.059            44.299
                     330     4 Feb 2021 22:31:26.912     4 Feb 2021 22:41:36.061           609.149
                     331     5 Feb 2021 00:04:35.133     5 Feb 2021 00:18:45.247           850.114
                     332     5 Feb 2021 01:37:24.253     5 Feb 2021 01:54:16.355          1012.102
                     333     5 Feb 2021 03:11:37.894     5 Feb 2021 03:29:27.567          1069.673
                     334     5 Feb 2021 04:46:44.007     5 Feb 2021 05:05:11.306          1107.299
                     335     5 Feb 2021 06:22:14.772     5 Feb 2021 06:39:47.982          1053.210
                     336     5 Feb 2021 07:58:45.076     5 Feb 2021 08:10:39.451           714.375
                     337     5 Feb 2021 21:08:55.732     5 Feb 2021 21:12:42.129           226.397
                     338     5 Feb 2021 22:39:51.308     5 Feb 2021 22:50:58.657           667.349
                     339     6 Feb 2021 00:13:19.618     6 Feb 2021 00:27:49.458           869.840
                     340     6 Feb 2021 01:46:10.242     6 Feb 2021 02:03:14.277          1024.036
                     341     6 Feb 2021 03:20:31.782     6 Feb 2021 03:38:29.788          1078.006
                     342     6 Feb 2021 04:55:42.008     6 Feb 2021 05:14:09.184          1107.176
                     343     6 Feb 2021 06:31:17.420     6 Feb 2021 06:48:28.647          1031.227
                     344     6 Feb 2021 08:08:01.839     6 Feb 2021 08:19:04.672           662.832
                     345     6 Feb 2021 21:17:10.412     6 Feb 2021 21:22:21.207           310.794
                     346     6 Feb 2021 22:48:24.619     6 Feb 2021 23:00:15.075           710.456
                     347     7 Feb 2021 00:21:53.217     7 Feb 2021 00:36:51.824           898.607
                     348     7 Feb 2021 01:54:58.596     7 Feb 2021 02:12:12.503          1033.907
                     349     7 Feb 2021 03:29:26.710     7 Feb 2021 03:47:32.442          1085.732
                     350     7 Feb 2021 05:04:40.502     7 Feb 2021 05:23:05.657          1105.154
                     351     7 Feb 2021 06:40:21.349     7 Feb 2021 06:57:04.305          1002.956
                     352     7 Feb 2021 08:17:21.714     7 Feb 2021 08:27:11.503           589.789
                     353     7 Feb 2021 21:25:38.424     7 Feb 2021 21:31:48.856           370.432
                     354     7 Feb 2021 22:57:02.382     7 Feb 2021 23:09:27.539           745.157
                     355     8 Feb 2021 00:30:29.606     8 Feb 2021 00:45:52.626           923.020
                     356     8 Feb 2021 02:03:46.045     8 Feb 2021 02:21:10.166          1044.121
                     357     8 Feb 2021 03:38:22.545     8 Feb 2021 03:56:34.607          1092.062
                     358     8 Feb 2021 05:13:38.785     8 Feb 2021 05:32:00.537          1101.751
                     359     8 Feb 2021 06:49:26.719     8 Feb 2021 07:05:32.864           966.145
                     360     8 Feb 2021 08:26:50.018     8 Feb 2021 08:32:26.542           336.524
                     361     8 Feb 2021 21:34:14.005     8 Feb 2021 21:41:10.239           416.234
                     362     8 Feb 2021 23:05:43.466     8 Feb 2021 23:18:37.208           773.742
                     363     9 Feb 2021 00:39:04.398     9 Feb 2021 00:54:52.043           947.645
                     364     9 Feb 2021 02:12:33.148     9 Feb 2021 02:30:07.212          1054.063
                     365     9 Feb 2021 03:47:19.159     9 Feb 2021 04:05:36.148          1096.989
                     366     9 Feb 2021 05:22:37.763     9 Feb 2021 05:40:53.608          1095.845
                     367     9 Feb 2021 06:58:33.455     9 Feb 2021 07:13:51.232           917.777
                     368     9 Feb 2021 08:36:39.625     9 Feb 2021 08:40:06.668           207.042
                     369     9 Feb 2021 21:42:54.682     9 Feb 2021 21:50:26.734           452.052
                     370     9 Feb 2021 23:14:27.073     9 Feb 2021 23:27:48.861           801.788
                     371    10 Feb 2021 00:47:35.809    10 Feb 2021 01:03:50.200           974.391
                     372    10 Feb 2021 02:21:22.314    10 Feb 2021 02:39:03.555          1061.241
                     373    10 Feb 2021 03:56:15.875    10 Feb 2021 04:14:36.925          1101.050
                     374    10 Feb 2021 05:31:37.174    10 Feb 2021 05:49:44.618          1087.445
                     375    10 Feb 2021 07:07:41.664    10 Feb 2021 07:21:29.757           828.094
                     376    10 Feb 2021 21:51:28.413    10 Feb 2021 21:59:39.733           491.320
                     377    10 Feb 2021 23:23:13.843    10 Feb 2021 23:36:59.930           826.087
                     378    11 Feb 2021 00:56:13.307    11 Feb 2021 01:12:47.136           993.828
                     379    11 Feb 2021 02:30:12.976    11 Feb 2021 02:47:59.112          1066.136
                     380    11 Feb 2021 04:05:12.333    11 Feb 2021 04:23:36.849          1104.516
                     381    11 Feb 2021 05:40:37.405    11 Feb 2021 05:58:33.229          1075.824
                     382    11 Feb 2021 07:16:51.266    11 Feb 2021 07:29:38.685           767.419
                     383    11 Feb 2021 21:59:09.521    11 Feb 2021 22:08:50.583           581.062
                     384    11 Feb 2021 23:32:03.207    11 Feb 2021 23:46:07.524           844.317
                     385    12 Feb 2021 01:04:55.026    12 Feb 2021 01:21:42.876          1007.851
                     386    12 Feb 2021 02:39:05.130    12 Feb 2021 02:56:54.051          1068.920
                     387    12 Feb 2021 04:14:09.477    12 Feb 2021 04:32:36.314          1106.837
                     388    12 Feb 2021 05:49:38.562    12 Feb 2021 06:07:18.991          1060.429
                     389    12 Feb 2021 07:26:03.706    12 Feb 2021 07:38:15.004           731.298
                     390    12 Feb 2021 20:36:43.917    12 Feb 2021 20:39:44.490           180.573
                     391    12 Feb 2021 22:07:28.408    12 Feb 2021 22:18:15.249           646.842
                     392    12 Feb 2021 23:40:50.279    12 Feb 2021 23:55:12.573           862.293
                     393    13 Feb 2021 01:13:39.948    13 Feb 2021 01:30:39.346          1019.399
                     394    13 Feb 2021 02:47:58.563    13 Feb 2021 03:05:53.186          1074.623
                     395    13 Feb 2021 04:23:07.242    13 Feb 2021 04:41:34.694          1107.452
                     396    13 Feb 2021 05:58:40.762    13 Feb 2021 06:16:01.266          1040.503
                     397    13 Feb 2021 07:35:20.030    13 Feb 2021 07:46:44.195           684.165
                     398    13 Feb 2021 20:44:50.673    13 Feb 2021 20:49:32.410           281.738
                     399    13 Feb 2021 22:15:58.822    13 Feb 2021 22:27:33.722           694.900
                     400    13 Feb 2021 23:49:28.653    14 Feb 2021 00:04:15.621           886.968
                     401    14 Feb 2021 01:22:27.427    14 Feb 2021 01:39:37.784          1030.357
                     402    14 Feb 2021 02:56:53.106    14 Feb 2021 03:14:55.973          1082.868
                     403    14 Feb 2021 04:32:05.590    14 Feb 2021 04:50:31.740          1106.149
                     404    14 Feb 2021 06:07:44.162    14 Feb 2021 06:24:39.091          1014.929
                     405    14 Feb 2021 07:44:37.707    14 Feb 2021 07:55:00.514           622.807
                     406    14 Feb 2021 20:53:14.363    14 Feb 2021 20:59:03.207           348.844
                     407    14 Feb 2021 22:24:35.282    14 Feb 2021 22:36:47.565           732.283
                     408    14 Feb 2021 23:58:02.752    15 Feb 2021 00:13:17.010           914.258
                     409    15 Feb 2021 01:31:16.276    15 Feb 2021 01:48:35.676          1039.400
                     410    15 Feb 2021 03:05:48.599    15 Feb 2021 03:23:58.349          1089.750
                     411    15 Feb 2021 04:41:03.893    15 Feb 2021 04:59:27.268          1103.375
                     412    15 Feb 2021 06:16:48.994    15 Feb 2021 06:33:10.587           981.593
                     413    15 Feb 2021 07:54:02.045    15 Feb 2021 08:00:22.828           380.783
                     414    15 Feb 2021 21:01:47.392    15 Feb 2021 21:08:27.076           399.684
                     415    15 Feb 2021 22:33:15.285    15 Feb 2021 22:45:58.224           762.939
                     416    16 Feb 2021 00:06:41.689    16 Feb 2021 00:22:16.953           935.264
                     417    16 Feb 2021 01:40:02.455    16 Feb 2021 01:57:32.969          1050.513
                     418    16 Feb 2021 03:14:44.922    16 Feb 2021 03:33:00.150          1095.228
                     419    16 Feb 2021 04:50:02.600    16 Feb 2021 05:08:21.078          1098.478
                     420    16 Feb 2021 06:25:55.115    16 Feb 2021 06:41:34.062           938.947
                     421    16 Feb 2021 08:03:39.921    16 Feb 2021 08:07:52.595           252.673
                     422    16 Feb 2021 21:10:26.269    16 Feb 2021 21:17:45.270           439.001
                     423    16 Feb 2021 22:41:57.605    16 Feb 2021 22:55:07.746           790.140
                     424    17 Feb 2021 00:15:10.661    17 Feb 2021 00:31:15.596           964.935
                     425    17 Feb 2021 01:48:50.859    17 Feb 2021 02:06:29.597          1058.738
                     426    17 Feb 2021 03:23:41.955    17 Feb 2021 03:42:01.243          1099.288
                     427    17 Feb 2021 04:59:01.842    17 Feb 2021 05:17:12.931          1091.090
                     428    17 Feb 2021 06:35:03.027    17 Feb 2021 06:49:37.578           874.551
                     429    17 Feb 2021 08:14:25.850    17 Feb 2021 08:15:36.745            70.895
                     430    17 Feb 2021 21:19:09.392    17 Feb 2021 21:26:59.512           470.119
                     431    17 Feb 2021 22:50:43.212    17 Feb 2021 23:04:20.607           817.396
                     432    18 Feb 2021 00:23:46.071    18 Feb 2021 00:40:13.004           986.933
                     433    18 Feb 2021 01:57:40.971    18 Feb 2021 02:15:25.481          1064.511
                     434    18 Feb 2021 03:32:38.155    18 Feb 2021 03:51:01.487          1103.333
                     435    18 Feb 2021 05:08:01.732    18 Feb 2021 05:26:02.528          1080.796
                     436    18 Feb 2021 06:44:11.727    18 Feb 2021 06:57:11.077           779.350
                     437    18 Feb 2021 21:26:56.290    18 Feb 2021 21:36:10.944           554.654
                     438    18 Feb 2021 22:59:31.620    18 Feb 2021 23:13:29.417           837.797
                     439    19 Feb 2021 00:32:26.288    19 Feb 2021 00:49:09.216          1002.928
                     440    19 Feb 2021 02:06:32.565    19 Feb 2021 02:24:20.506          1067.941
                     441    19 Feb 2021 03:41:35.038    19 Feb 2021 04:00:01.144          1106.106
                     442    19 Feb 2021 05:17:02.514    19 Feb 2021 05:34:49.472          1066.959
                     443    19 Feb 2021 06:53:22.950    19 Feb 2021 07:05:49.497           746.547
                     444    19 Feb 2021 20:04:42.410    19 Feb 2021 20:06:36.710           114.300
                     445    19 Feb 2021 21:35:07.195    19 Feb 2021 21:45:30.703           623.508
                     446    19 Feb 2021 23:08:21.011    19 Feb 2021 23:22:35.380           854.370
                     447    20 Feb 2021 00:41:10.044    20 Feb 2021 00:58:04.338          1014.293
                     448    20 Feb 2021 02:15:25.518    20 Feb 2021 02:33:16.777          1071.258
                     449    20 Feb 2021 03:50:32.567    20 Feb 2021 04:09:00.001          1107.434
                     450    20 Feb 2021 05:26:04.290    20 Feb 2021 05:43:33.205          1048.915
                     451    20 Feb 2021 07:02:37.661    20 Feb 2021 07:14:21.880           704.219
                     452    20 Feb 2021 20:12:33.475    20 Feb 2021 20:16:41.233           247.758
                     453    20 Feb 2021 21:43:34.003    20 Feb 2021 21:54:51.672           677.669
                     454    20 Feb 2021 23:17:05.288    20 Feb 2021 23:31:39.158           873.871
                     455    21 Feb 2021 00:49:56.582    21 Feb 2021 01:07:02.987          1026.404
                     456    21 Feb 2021 02:24:19.646    21 Feb 2021 02:42:19.442          1079.797
                     457    21 Feb 2021 03:59:30.696    21 Feb 2021 04:17:57.592          1106.896
                     458    21 Feb 2021 05:35:07.197    21 Feb 2021 05:52:12.922          1025.725
                     459    21 Feb 2021 07:11:54.684    21 Feb 2021 07:22:44.430           649.746
                     460    21 Feb 2021 20:20:51.688    21 Feb 2021 20:26:16.815           325.127
                     461    21 Feb 2021 21:52:08.709    21 Feb 2021 22:04:07.102           718.393
                     462    21 Feb 2021 23:25:36.687    21 Feb 2021 23:40:41.167           904.480
                     463    22 Feb 2021 00:58:45.394    22 Feb 2021 01:16:01.098          1035.704
                     464    22 Feb 2021 02:33:14.782    22 Feb 2021 02:51:22.005          1087.223
                     465    22 Feb 2021 04:08:29.117    22 Feb 2021 04:26:53.733          1104.616
                     466    22 Feb 2021 05:44:11.437    22 Feb 2021 06:00:47.228           995.791
                     467    22 Feb 2021 07:21:15.973    22 Feb 2021 07:30:43.211           567.238
                     468    22 Feb 2021 20:29:21.668    22 Feb 2021 20:35:43.046           381.378
                     469    22 Feb 2021 22:00:47.118    22 Feb 2021 22:13:18.888           751.770
                     470    22 Feb 2021 23:34:14.200    22 Feb 2021 23:49:41.656           927.457
                     471    23 Feb 2021 01:07:32.110    23 Feb 2021 01:24:58.632          1046.522
                     472    23 Feb 2021 02:42:10.799    23 Feb 2021 03:00:24.043          1093.245
                     473    23 Feb 2021 04:17:27.548    23 Feb 2021 04:35:48.246          1100.698
                     474    23 Feb 2021 05:53:17.066    23 Feb 2021 06:09:14.128           957.062
                     475    23 Feb 2021 07:30:47.038    23 Feb 2021 07:35:58.566           311.528
                     476    23 Feb 2021 20:37:58.498    23 Feb 2021 20:45:03.206           424.708
                     477    23 Feb 2021 22:09:28.668    23 Feb 2021 22:22:28.049           779.381
                     478    23 Feb 2021 23:42:46.598    23 Feb 2021 23:58:40.801           954.203
                     479    24 Feb 2021 01:16:19.688    24 Feb 2021 01:33:55.525          1055.837
                     480    24 Feb 2021 02:51:07.560    24 Feb 2021 03:09:25.431          1097.870
                     481    24 Feb 2021 04:26:26.640    24 Feb 2021 04:44:40.897          1094.257
                     482    24 Feb 2021 06:02:24.216    24 Feb 2021 06:17:28.508           904.293
                     483    24 Feb 2021 07:40:48.123    24 Feb 2021 07:43:41.114           172.991
                     484    24 Feb 2021 20:46:40.090    24 Feb 2021 20:54:18.850           458.760
                     485    24 Feb 2021 22:18:13.014    24 Feb 2021 22:31:40.669           807.655
                     486    24 Feb 2021 23:51:19.562    25 Feb 2021 00:07:38.688           979.126
                     487    25 Feb 2021 01:25:09.204    25 Feb 2021 01:42:51.710          1062.506
                     488    25 Feb 2021 03:00:04.093    25 Feb 2021 03:18:26.025          1101.931
                     489    25 Feb 2021 04:35:26.194    25 Feb 2021 04:53:31.420          1085.226
                     490    25 Feb 2021 06:11:32.577    25 Feb 2021 06:24:42.814           790.237
                     491    25 Feb 2021 20:54:51.214    25 Feb 2021 21:03:31.220           520.006
                     492    25 Feb 2021 22:27:00.383    25 Feb 2021 22:40:50.877           830.494
                     493    25 Feb 2021 23:59:58.087    26 Feb 2021 00:16:35.365           997.278
                     494    26 Feb 2021 01:34:00.208    26 Feb 2021 01:51:47.087          1066.879
                     495    26 Feb 2021 03:09:00.703    26 Feb 2021 03:27:25.837          1105.134
                     496    26 Feb 2021 04:44:26.616    26 Feb 2021 05:02:19.459          1072.843
                     497    26 Feb 2021 06:20:42.723    26 Feb 2021 06:33:23.078           760.356
                     498    26 Feb 2021 21:02:48.198    26 Feb 2021 21:12:45.312           597.114
                     499    26 Feb 2021 22:35:50.252    26 Feb 2021 22:49:57.856           847.604
                     500    27 Feb 2021 00:08:40.564    27 Feb 2021 00:25:30.844          1010.280
                     501    27 Feb 2021 01:42:52.654    27 Feb 2021 02:00:42.033          1069.379
                     502    27 Feb 2021 03:17:57.987    27 Feb 2021 03:36:25.114          1107.126
                     503    27 Feb 2021 04:53:27.990    27 Feb 2021 05:11:04.529          1056.539
                     504    27 Feb 2021 06:29:55.914    27 Feb 2021 06:41:58.115           722.202
                     505    27 Feb 2021 19:40:19.158    27 Feb 2021 19:43:46.511           207.353
                     506    27 Feb 2021 21:11:10.335    27 Feb 2021 21:22:08.794           658.459
                     507    27 Feb 2021 22:44:35.881    27 Feb 2021 22:59:02.430           866.548
                     508    28 Feb 2021 00:17:26.089    28 Feb 2021 00:34:28.098          1022.009
                     509    28 Feb 2021 01:51:46.340    28 Feb 2021 02:09:42.842          1076.502
                     510    28 Feb 2021 03:26:55.883    28 Feb 2021 03:45:23.220          1107.338
                     511    28 Feb 2021 05:02:30.432    28 Feb 2021 05:19:45.932          1035.500
                     512    28 Feb 2021 06:39:12.478    28 Feb 2021 06:50:25.236           672.759
                     513    28 Feb 2021 19:48:30.757    28 Feb 2021 19:53:29.046           298.288
                     514    28 Feb 2021 21:19:42.413    28 Feb 2021 21:31:26.085           703.672
                     515    28 Feb 2021 22:53:11.545    28 Feb 2021 23:08:05.100           893.555
                     516     1 Mar 2021 00:26:14.057     1 Mar 2021 00:43:26.427          1032.371
                     517     1 Mar 2021 02:00:41.101     1 Mar 2021 02:18:45.573          1084.472
                     518     1 Mar 2021 03:35:54.350     1 Mar 2021 03:54:19.955          1105.604
                     519     1 Mar 2021 05:11:34.121     1 Mar 2021 05:28:22.608          1008.487
                     520     1 Mar 2021 06:48:31.312     1 Mar 2021 06:58:36.901           605.589
                     521     1 Mar 2021 19:56:56.961     1 Mar 2021 20:02:57.996           361.035
                     522     1 Mar 2021 21:28:19.617     1 Mar 2021 21:40:39.150           739.533
                     523     1 Mar 2021 23:01:46.953     1 Mar 2021 23:17:06.162           919.208
                     524     2 Mar 2021 00:35:02.124     2 Mar 2021 00:52:24.190          1042.066
                     525     2 Mar 2021 02:09:36.783     2 Mar 2021 02:27:47.837          1091.054
                     526     2 Mar 2021 03:44:52.600     2 Mar 2021 04:03:15.130          1102.530
                     527     2 Mar 2021 05:20:39.280     2 Mar 2021 05:36:52.564           973.283
                     528     2 Mar 2021 06:57:57.696     2 Mar 2021 07:03:51.610           353.914
                     529     2 Mar 2021 20:05:31.452     2 Mar 2021 20:12:20.458           409.006
                     530     2 Mar 2021 21:37:00.306     2 Mar 2021 21:49:49.246           768.940
                     531     2 Mar 2021 23:10:23.870     2 Mar 2021 23:26:05.816           941.946
                     532     3 Mar 2021 00:43:48.823     3 Mar 2021 01:01:21.349          1052.527
                     533     3 Mar 2021 02:18:33.268     3 Mar 2021 02:36:49.496          1096.228
                     534     3 Mar 2021 03:53:51.457     3 Mar 2021 04:12:08.538          1097.081
                     535     3 Mar 2021 05:29:45.700     3 Mar 2021 05:45:13.426           927.726
                     536     3 Mar 2021 07:07:41.053     3 Mar 2021 07:11:30.479           229.426
                     537     3 Mar 2021 20:14:11.347     3 Mar 2021 20:21:37.686           446.339
                     538     3 Mar 2021 21:45:43.277     3 Mar 2021 21:59:00.012           796.735
                     539     3 Mar 2021 23:18:53.895     3 Mar 2021 23:35:04.185           970.291
                     540     4 Mar 2021 00:52:37.655     4 Mar 2021 01:10:17.820          1060.165
                     541     4 Mar 2021 02:27:30.143     4 Mar 2021 02:45:50.419          1100.276
                     542     4 Mar 2021 04:02:50.791     4 Mar 2021 04:20:59.932          1089.141
                     543     4 Mar 2021 05:38:53.776     4 Mar 2021 05:53:06.866           853.090
                     544     4 Mar 2021 20:22:55.251     4 Mar 2021 20:30:51.225           475.973
                     545     4 Mar 2021 21:54:29.536     4 Mar 2021 22:08:11.843           822.307
                     546     4 Mar 2021 23:27:30.490     4 Mar 2021 23:44:01.335           990.845
                     547     5 Mar 2021 01:01:28.073     5 Mar 2021 01:19:13.529          1065.456
                     548     5 Mar 2021 02:36:26.473     5 Mar 2021 02:54:50.462          1103.990
                     549     5 Mar 2021 04:11:50.867     5 Mar 2021 04:29:48.993          1078.127
                     550     5 Mar 2021 05:48:02.961     5 Mar 2021 06:00:55.870           772.908
                     551     5 Mar 2021 20:30:32.423     5 Mar 2021 20:40:02.315           569.893
                     552     5 Mar 2021 22:03:18.485     5 Mar 2021 22:17:19.965           841.480
                     553     5 Mar 2021 23:36:11.555     5 Mar 2021 23:52:57.286          1005.731
                     554     6 Mar 2021 01:10:19.981     6 Mar 2021 01:28:08.450          1068.470
                     555     6 Mar 2021 02:45:23.498     6 Mar 2021 03:03:50.042          1106.544
                     556     6 Mar 2021 04:20:51.853     6 Mar 2021 04:38:35.296          1063.443
                     557     6 Mar 2021 05:57:14.833     6 Mar 2021 06:09:33.169           738.336
                     558     6 Mar 2021 19:08:10.752     6 Mar 2021 19:10:45.505           154.753
                     559     6 Mar 2021 20:38:48.142     6 Mar 2021 20:49:24.906           636.763
                     560     6 Mar 2021 22:12:06.616     6 Mar 2021 22:26:25.412           858.796
                     561     6 Mar 2021 23:44:55.965     7 Mar 2021 00:01:53.134          1017.169
                     562     7 Mar 2021 01:19:13.201     7 Mar 2021 01:37:06.345          1073.144
                     563     7 Mar 2021 02:54:21.159     7 Mar 2021 03:12:48.639          1107.480
                     564     7 Mar 2021 04:29:53.861     7 Mar 2021 04:47:18.246          1044.386
                     565     7 Mar 2021 06:06:30.481     7 Mar 2021 06:18:03.869           693.388
                     566     7 Mar 2021 19:16:12.160     7 Mar 2021 19:20:39.279           267.119
                     567     7 Mar 2021 20:47:17.048     7 Mar 2021 20:58:44.436           687.388
                     568     7 Mar 2021 22:20:47.500     7 Mar 2021 22:35:28.778           881.278
                     569     7 Mar 2021 23:53:43.035     8 Mar 2021 00:10:51.671          1028.636
                     570     8 Mar 2021 01:28:07.563     8 Mar 2021 01:46:09.079          1081.516
                     571     8 Mar 2021 03:03:19.409     8 Mar 2021 03:21:45.932          1106.523
                     572     8 Mar 2021 04:38:57.036     8 Mar 2021 04:55:56.951          1019.915
                     573     8 Mar 2021 06:15:47.774     8 Mar 2021 06:26:23.259           635.484
                     574     8 Mar 2021 19:24:33.485     8 Mar 2021 19:30:12.006           338.521
                     575     8 Mar 2021 20:55:52.857     8 Mar 2021 21:07:58.958           726.101
                     576     8 Mar 2021 22:29:20.442     8 Mar 2021 22:44:30.440           909.998
                     577     9 Mar 2021 00:02:32.277     9 Mar 2021 00:19:49.662          1037.384
                     578     9 Mar 2021 01:37:02.898     9 Mar 2021 01:55:11.536          1088.638
                     579     9 Mar 2021 03:12:17.760     9 Mar 2021 03:30:41.742          1103.982
                     580     9 Mar 2021 04:48:01.596     9 Mar 2021 05:04:29.766           988.170
                     581     9 Mar 2021 06:25:10.656     9 Mar 2021 06:34:11.331           540.674
                     582     9 Mar 2021 19:33:05.220     9 Mar 2021 19:39:36.919           391.698
                     583     9 Mar 2021 21:04:32.056     9 Mar 2021 21:17:10.106           758.050
                     584     9 Mar 2021 22:37:58.880     9 Mar 2021 22:53:30.632           931.752
                     585    10 Mar 2021 00:11:18.282    10 Mar 2021 00:28:47.060          1048.778
                     586    10 Mar 2021 01:45:59.080    10 Mar 2021 02:04:13.448          1094.368
                     587    10 Mar 2021 03:21:16.344    10 Mar 2021 03:39:35.869          1099.525
                     588    10 Mar 2021 04:57:07.488    10 Mar 2021 05:12:54.892           947.404
                     589    10 Mar 2021 06:34:45.108    10 Mar 2021 06:39:23.919           278.811
                     590    10 Mar 2021 19:41:43.211    10 Mar 2021 19:48:55.962           432.751
                     591    10 Mar 2021 21:13:14.041    10 Mar 2021 21:26:18.800           784.759
                     592    10 Mar 2021 22:46:29.203    10 Mar 2021 23:02:29.495           960.292
                     593    11 Mar 2021 00:20:06.322    11 Mar 2021 00:37:43.810          1057.488
                     594    11 Mar 2021 01:54:55.995    11 Mar 2021 02:13:14.677          1098.681
                     595    11 Mar 2021 03:30:15.515    11 Mar 2021 03:48:28.086          1092.571
                     596    11 Mar 2021 05:06:15.081    11 Mar 2021 05:21:04.035           888.955
                     597    11 Mar 2021 06:45:19.194    11 Mar 2021 06:47:11.773           112.579
                     598    11 Mar 2021 19:50:25.663    11 Mar 2021 19:58:10.814           465.152
                     599    11 Mar 2021 21:21:59.095    11 Mar 2021 21:35:32.258           813.162
                     600    11 Mar 2021 22:55:03.566    11 Mar 2021 23:11:27.119           983.553
